[
   {
      "buildingCode":"AA",
      "city":"Wien",
      "houseNumber":"13",
      "id":605,
      "name":"Karlsplatz 13",
      "secondaryName":"Hauptgebäude AA-AI",
      "street":"Karlsplatz",
      "zipCode":"1040",
      "latitude":48.1990183,
      "longitude":16.369949
   },
   {
      "buildingCode":"AK",
      "city":"Wien",
      "houseNumber":"16",
      "id":608,
      "name":"Paniglgasse 16",
      "secondaryName":"Institutsgebäude AK",
      "street":"Paniglgasse",
      "zipCode":"1040",
      "latitude":48.198172,
      "longitude":16.3690193
   },
   {
      "buildingCode":"AP",
      "city":"Wien",
      "houseNumber":"7",
      "id":611,
      "name":"Wiedner Hauptstr. 7",
      "secondaryName":"Goldenes Lamm AP",
      "street":"Wiedner Hauptstraße",
      "zipCode":"1040",
      "latitude":48.1987386,
      "longitude":16.3679628
   },
   {
      "buildingCode":"AQ",
      "city":"Wien",
      "houseNumber":"9",
      "id":614,
      "name":"Wiedner Hauptstr. 9",
      "secondaryName":"Ödenburg AQ",
      "street":"Wiedner Hauptstraße",
      "zipCode":"1040",
      "latitude":48.1985528,
      "longitude":16.3679673
   },
   {
      "buildingCode":"AS",
      "city":"Wien",
      "houseNumber":"3",
      "id":617,
      "name":"Resselgasse 3",
      "secondaryName":"Institutsgebäude AS",
      "street":"Resselgasse",
      "zipCode":"1040",
      "latitude":48.1985746,
      "longitude":16.3690995
   },
   {
      "buildingCode":"AT",
      "city":"Wien",
      "houseNumber":"5",
      "id":620,
      "name":"Resselgasse 5",
      "secondaryName":"Institutsgebäude AT",
      "street":"Resselgasse",
      "zipCode":"1040",
      "latitude":48.1989268,
      "longitude":16.3685367
   },
   {
      "buildingCode":"BA",
      "city":"Wien",
      "houseNumber":"9",
      "id":622,
      "name":"Plus Energie Büro Hochhaus (Obj. 1)",
      "secondaryName":"Plus Energie Büro Hochhaus BA",
      "street":"Getreidemarkt",
      "zipCode":"1060",
      "latitude":48.2009414,
      "longitude":16.3631396
   },
   {
      "buildingCode":"BB",
      "city":"Wien",
      "houseNumber":"9",
      "id":624,
      "name":"Eckbau/Winkeltrakt (Obj. 3)",
      "secondaryName":"Eckbau BB",
      "street":"Getreidemarkt",
      "zipCode":"1060",
      "latitude":48.2009414,
      "longitude":16.3631396
   },
   {
      "buildingCode":"BC",
      "city":"Wien",
      "houseNumber":"4",
      "id":627,
      "name":"Lehargasse 4 (Obj. 6)",
      "secondaryName":"Lehartrakt BC",
      "street":"Lehargasse",
      "zipCode":"1060",
      "latitude":48.2001539,
      "longitude":16.3630391
   },
   {
      "buildingCode":"BD",
      "city":"Wien",
      "houseNumber":"6",
      "id":630,
      "name":"Hoftrakt (Obj. 7)",
      "secondaryName":"Hoftrakt BD",
      "street":"Lehargasse",
      "zipCode":"1060",
      "latitude":48.2002652,
      "longitude":16.3621001
   },
   {
      "buildingCode":"BE",
      "city":"Wien",
      "houseNumber":"7",
      "id":633,
      "name":"Gumpendorfer Straße 7 (Obj. 8)",
      "secondaryName":"Lückenbau BE",
      "street":"Gumpendorfer Straße",
      "zipCode":"1060",
      "latitude":48.200414,
      "longitude":16.3617649
   },
   {
      "buildingCode":"BF",
      "city":"Wien",
      "houseNumber":"6",
      "id":635,
      "name":"MWB - Hallen (Obj. 11)",
      "secondaryName":"MWB - Hallen BF",
      "street":"Lehargasse",
      "zipCode":"1060",
      "latitude":48.2002652,
      "longitude":16.3621001
   },
   {
      "buildingCode":"BG",
      "city":"Wien",
      "houseNumber":"2",
      "id":638,
      "name":"Tiefgarage",
      "secondaryName":"Tiefgarage BG",
      "street":"Lehargasse",
      "zipCode":"1060",
      "latitude":48.2003601,
      "longitude":16.3637917
   },
   {
      "buildingCode":"BH",
      "city":"Wien",
      "houseNumber":"1a",
      "id":641,
      "name":"Gumpendorfer Str. 1a (Obj. 9)",
      "secondaryName":"Institutsgebäude BH",
      "street":"Gumpendorfer Straße",
      "zipCode":"1060",
      "latitude":48.2009944,
      "longitude":16.3624282
   },
   {
      "buildingCode":"BI",
      "city":"Wien",
      "houseNumber":"9",
      "id":643,
      "name":"Loschmidt Trakt (Obj. 2)",
      "secondaryName":"Loschmidt Trakt BI",
      "street":"Getreidemarkt",
      "zipCode":"1060",
      "latitude":48.2009414,
      "longitude":16.3631396
   },
   {
      "buildingCode":"BK",
      "city":"Wien",
      "houseNumber":"9",
      "id":645,
      "name":"Loschmidt Trakt Keller (Obj. 2)",
      "secondaryName":"Loschmidt Trakt Keller BK",
      "street":"Getreidemarkt",
      "zipCode":"1060",
      "latitude":48.2009414,
      "longitude":16.3631396
   },
   {
      "buildingCode":"BL",
      "city":"Wien",
      "houseNumber":"6",
      "id":647,
      "name":"Wirtschaftsgebäude (Obj. 10)",
      "secondaryName":"Wirtschaftgeb. BL",
      "street":"Lehargasse",
      "zipCode":"1060",
      "latitude":48.2002652,
      "longitude":16.3621001
   },
   {
      "buildingCode":"BQ",
      "city":"Wien",
      "houseNumber":"9",
      "id":649,
      "name":"Gasflaschenlager GM9 (Obj. 5)",
      "secondaryName":"Gasflaschenlager GM9",
      "street":"Getreidemarkt",
      "zipCode":"1060",
      "latitude":48.2009414,
      "longitude":16.3631396
   },
   {
      "buildingCode":"BZ",
      "city":"Wien",
      "houseNumber":"9",
      "id":651,
      "name":"Geniegebäude (Obj. 4)",
      "secondaryName":"Geniegebäude BZ",
      "street":"Getreidemarkt",
      "zipCode":"1060",
      "latitude":48.2009414,
      "longitude":16.3631396
   },
   {
      "buildingCode":"CA",
      "city":"Wien",
      "houseNumber":"25-29",
      "id":653,
      "name":"Gußhausstr. 27-29 - Neu El",
      "secondaryName":"Elektrot. Institutsg. CA-CE",
      "street":"Gußhausstraße",
      "zipCode":"1040",
      "latitude":48.1984089,
      "longitude":16.3747584
   },
   {
      "buildingCode":"CF",
      "city":"Wien",
      "houseNumber":"25-25a",
      "id":656,
      "name":"Gußhausstr. 25 - Alt. El",
      "secondaryName":"Altes Elektrot.Institutsg. CF-CG",
      "street":"Gußhausstraße",
      "zipCode":"1040",
      "latitude":48.1984089,
      "longitude":16.3747584
   },
   {
      "buildingCode":"CH",
      "city":"Wien",
      "houseNumber":"25-25a",
      "id":658,
      "name":"Nano Center",
      "secondaryName":"Zentr. f. Mikro- u. Nanostruktur",
      "street":"Gußhausstraße",
      "zipCode":"1040",
      "latitude":48.1984089,
      "longitude":16.3747584
   },
   {
      "buildingCode":"CI",
      "city":"Wien",
      "houseNumber":"25-25a",
      "id":660,
      "name":"Makartvilla",
      "secondaryName":"Markatvilla CI",
      "street":"Gußhausstraße",
      "zipCode":"1040",
      "latitude":48.1984089,
      "longitude":16.3747584
   },
   {
      "buildingCode":"DA",
      "city":"Wien",
      "houseNumber":"8-10",
      "id":662,
      "name":"Wiedner Hauptstr. 8-10",
      "secondaryName":"Freihausgebäude DA-DC",
      "street":"Wiedner Hauptstraße",
      "zipCode":"1040",
      "latitude":48.1989808,
      "longitude":16.367573
   },
   {
      "buildingCode":"DD",
      "city":"Wien",
      "houseNumber":"6",
      "id":665,
      "name":"Resselgasse 4",
      "secondaryName":"Hauptbibliothek DD",
      "street":"Wiedner Hauptstraße",
      "zipCode":"1040",
      "latitude":48.1994226,
      "longitude":16.367775
   },
   {
      "buildingCode":"DE",
      "city":"Wien",
      "houseNumber":"3",
      "id":668,
      "name":"Treitlstraße 3",
      "secondaryName":"BAWAG-Haus DE",
      "street":"Treitlstraße",
      "zipCode":"1040",
      "latitude":48.1997616,
      "longitude":16.3673819
   },
   {
      "buildingCode":"DF",
      "city":"Wien",
      "houseNumber":"11",
      "id":671,
      "name":"Operngasse 11",
      "secondaryName":"Perlmooser-Haus DF",
      "street":"Operngasse",
      "zipCode":"1040",
      "latitude":48.1995515,
      "longitude":16.3668678
   },
   {
      "buildingCode":"EA",
      "city":"Wien",
      "houseNumber":"8",
      "id":674,
      "name":"Argentinierstr. 8",
      "secondaryName":"Institutsgebäude EA",
      "street":"Argentinierstraße",
      "zipCode":"1040",
      "latitude":48.1976475,
      "longitude":16.3714602
   },
   {
      "buildingCode":"EB",
      "city":"Wien",
      "houseNumber":"11",
      "id":677,
      "name":"Karlsgasse 11",
      "secondaryName":"Institutsgebäude EB",
      "street":"Karlsgasse",
      "zipCode":"1040",
      "latitude":48.1972083,
      "longitude":16.3701523
   },
   {
      "buildingCode":"EC",
      "city":"Wien",
      "houseNumber":"13",
      "id":680,
      "name":"Karlsgasse 13",
      "secondaryName":"Institutsgebäude EC",
      "street":"Karlsgasse",
      "zipCode":"1040",
      "latitude":48.1970618,
      "longitude":16.370051
   },
   {
      "buildingCode":"FA",
      "city":"Wien",
      "houseNumber":"28",
      "id":683,
      "name":"Gußhausstr. 28",
      "secondaryName":"Institutsgebäude FA",
      "street":"Gußhausstraße",
      "zipCode":"1040",
      "latitude":48.1964569,
      "longitude":16.3689312
   },
   {
      "buildingCode":"FB",
      "city":"Wien",
      "houseNumber":"1",
      "id":685,
      "name":"Erzherzog-Johann-Pl. 1",
      "secondaryName":"Institutsgebäude FB-FC",
      "street":"Erzherzog-Johann-Platz",
      "zipCode":"1040",
      "latitude":48.1963002,
      "longitude":16.3685319
   },
   {
      "buildingCode":"HA",
      "city":"Wien",
      "houseNumber":"9-11",
      "id":687,
      "name":"Favoritenstraße 9-11",
      "secondaryName":"Institutsgebäude HA-HI",
      "street":"Favoritenstraße",
      "zipCode":"1040",
      "latitude":48.1962582,
      "longitude":16.3681693
   },
   {
      "buildingCode":"MA",
      "city":"Wien",
      "houseNumber":"1-3",
      "id":689,
      "name":"Funkehalle",
      "secondaryName":"Funke-Halle MA-MB",
      "street":"Adolf Blamauergasse",
      "zipCode":"1030",
      "latitude":48.1981,
      "longitude":16.3948
   },
   {
      "buildingCode":"MC",
      "city":"Wien",
      "houseNumber":"1-3",
      "id":691,
      "name":"Plechaty-Halle",
      "secondaryName":"Plechaty-Halle MC",
      "street":"Adolf Blamauergasse",
      "zipCode":"1030",
      "latitude":48.1981,
      "longitude":16.3948
   },
   {
      "buildingCode":"MD",
      "city":"Wien",
      "houseNumber":"1-3",
      "id":693,
      "name":"Hirnböckhalle",
      "secondaryName":"Hirnböckhalle MD",
      "street":"Adolf Blamauergasse",
      "zipCode":"1030",
      "latitude":48.1981,
      "longitude":16.3948
   },
   {
      "buildingCode":"ME",
      "city":"Wien",
      "houseNumber":"1-3",
      "id":695,
      "name":"Rella Halle",
      "secondaryName":"Rella-Halle ME",
      "street":"Adolf Blamauergasse",
      "zipCode":"1030",
      "latitude":48.1981,
      "longitude":16.3948
   },
   {
      "buildingCode":"MF",
      "city":"Wien",
      "houseNumber":"1-3",
      "id":697,
      "name":"Transalpinahalle alt",
      "secondaryName":"Transalpinahalle Alt MF",
      "street":"Adolf Blamauergasse",
      "zipCode":"1030",
      "latitude":48.1981,
      "longitude":16.3948
   },
   {
      "buildingCode":"MG",
      "city":"Wien",
      "houseNumber":"1-3",
      "id":699,
      "name":"Transalpinahalle neu",
      "secondaryName":"Transalpinahalle Neu MG-MH",
      "street":"Adolf Blamauergasse",
      "zipCode":"1030",
      "latitude":48.1981,
      "longitude":16.3948
   },
   {
      "buildingCode":"MI",
      "city":"Wien",
      "houseNumber":"1-3",
      "id":701,
      "name":"Segelfliegerhalle",
      "secondaryName":"Segelfliegerhalle MI",
      "street":"Adolf Blamauergasse",
      "zipCode":"1030",
      "latitude":48.1981,
      "longitude":16.3948
   },
   {
      "buildingCode":"MQ",
      "city":"Wien",
      "houseNumber":"1-3",
      "id":703,
      "name":"Öl+Gasflaschenlager",
      "secondaryName":"Öl+Gasflaschenlager MQ",
      "street":"Adolf Blamauergasse",
      "zipCode":"1030",
      "latitude":48.1981,
      "longitude":16.3948
   },
   {
      "buildingCode":"O1",
      "city":"Wien",
      "houseNumber":"3",
      "id":706,
      "name":"Objekt 210",
      "secondaryName":"ARSENAL Objekt 210 O1",
      "street":"Franz-Grill-Straße",
      "zipCode":"1030",
      "latitude":48.1815779,
      "longitude":16.3983352
   },
   {
      "buildingCode":"OA",
      "city":"Wien",
      "houseNumber":"2-4",
      "id":709,
      "name":"Arsenal OA",
      "secondaryName":"ARSENAL OA Objekt 221",
      "street":"Franz-Grill-Straße",
      "zipCode":"1030",
      "latitude":48.1815779,
      "longitude":16.3983352
   },
   {
      "buildingCode":"OB",
      "city":"Wien",
      "houseNumber":"8",
      "id":712,
      "name":"Magna Halle, Arsenal OB",
      "secondaryName":"ARSENAL OB Objekt 227",
      "street":"Franz-Grill-Straße",
      "zipCode":"1030",
      "latitude":48.1797469,
      "longitude":16.3955104
   },
   {
      "buildingCode":"OC",
      "city":"Wien",
      "houseNumber":"14",
      "id":715,
      "name":"Arsenal OC",
      "secondaryName":"ARSENAL OC Objekt 236",
      "street":"Lilienthalgasse",
      "zipCode":"1030",
      "latitude":48.1817857,
      "longitude":16.3969781
   },
   {
      "buildingCode":"OD",
      "city":"Wien",
      "houseNumber":"21",
      "id":718,
      "name":"Arsenal OD",
      "secondaryName":"ARSENAL OD Objekt 235",
      "street":"Lilienthalgasse",
      "zipCode":"1030",
      "latitude":48.1804569,
      "longitude":16.3943452
   },
   {
      "buildingCode":"OV",
      "city":"Wien",
      "houseNumber":"21",
      "id":720,
      "name":"Objekt 219",
      "secondaryName":"ARSENAL OV Objekt 219",
      "street":"Lilienthalgasse",
      "zipCode":"1030",
      "latitude":48.1804569,
      "longitude":16.3943452
   },
   {
      "buildingCode":"OX",
      "city":"Wien",
      "houseNumber":"3",
      "id":722,
      "name":"Objekt 207",
      "secondaryName":"ARSENAL Objekt 207 OX",
      "street":"Franz-Grill-Straße",
      "zipCode":"1030",
      "latitude":48.1815779,
      "longitude":16.3983352
   },
   {
      "buildingCode":"OZ",
      "city":"Wien",
      "houseNumber":"9",
      "id":725,
      "name":"Arsenal OZ",
      "secondaryName":"ARSENAL OZ Objekt 214",
      "street":"Franz-Grill-Straße",
      "zipCode":"1030",
      "latitude":48.178899,
      "longitude":16.3961414
   },
   {
      "buildingCode":"PF",
      "city":"Wien",
      "houseNumber":"27/3",
      "id":727,
      "name":"Aspern IQ",
      "secondaryName":"Aspern IQ Pilotfabrik PF",
      "street":"Seestadtstraße",
      "zipCode":"1220",
      "latitude":48.2168008,
      "longitude":16.5047729
   },
   {
      "buildingCode":"XD",
      "city":"Wien",
      "houseNumber":"76",
      "id":730,
      "name":"Wiedner Hauptstr. 76",
      "secondaryName":"Institutsgebäude GE",
      "street":"Wiedner Hauptstraße",
      "zipCode":"1040",
      "latitude":48.1894,
      "longitude":16.3654306
   },
   {
      "buildingCode":"XG",
      "city":"Wien",
      "houseNumber":"7",
      "id":732,
      "name":"Floragasse 7",
      "secondaryName":"Institutsgebäude GA",
      "street":"Floragasse",
      "zipCode":"1040",
      "latitude":48.1943143,
      "longitude":16.3685199
   },
   {
      "buildingCode":"XH",
      "city":"Wien",
      "houseNumber":"16",
      "id":735,
      "name":"Favoritenstr. 16",
      "secondaryName":"Institutsgebäude HK",
      "street":"Favoritenstraße",
      "zipCode":"1040",
      "latitude":48.1945307,
      "longitude":16.3697047
   },
   {
      "buildingCode":"XP",
      "city":"Wien",
      "houseNumber":"119",
      "id":738,
      "name":"Engerthstr. 119",
      "secondaryName":"Institutsgebäude PA-PC",
      "street":"Engerthstraße",
      "zipCode":"1200",
      "latitude":48.2344078,
      "longitude":16.39273
   },
   {
      "buildingCode":"XQ",
      "city":"Wien",
      "houseNumber":"27",
      "id":740,
      "name":"Theresianumgasse 27",
      "secondaryName":"Institutsgebäude QA",
      "street":"Theresianumgasse",
      "zipCode":"1040",
      "latitude":48.1913948,
      "longitude":16.3735835
   },
   {
      "buildingCode":"XR",
      "city":"Wien",
      "houseNumber":"7",
      "id":743,
      "name":"Theresianumgasse 7",
      "secondaryName":"Institutsgebäude QB",
      "street":"Theresianumgasse",
      "zipCode":"1040",
      "latitude":48.1924855,
      "longitude":16.3774223
   },
   {
      "buildingCode":"XT",
      "city":"Wien",
      "houseNumber":"11",
      "id":746,
      "name":"Taubstummengasse 11",
      "secondaryName":"Institutsgebäude HL",
      "street":"Taubstummengasse",
      "zipCode":"1040",
      "latitude":48.1948881,
      "longitude":16.3712622
   },
   {
      "buildingCode":"XW",
      "city":"Wien",
      "houseNumber":"2-6",
      "id":750,
      "name":"Augasse 2-6",
      "secondaryName":"Ausweichquartier alte WU-Wien",
      "street":"Augasse",
      "zipCode":"1090",
      "latitude":48.2322121,
      "longitude":16.3580457
   },
   {
      "buildingCode":"ZA",
      "city":"Wien",
      "houseNumber":"2",
      "id":752,
      "name":"Stadionallee 2",
      "secondaryName":"Atominstitut ZA-ZD",
      "street":"Stadionallee",
      "zipCode":"1020",
      "latitude":48.196658,
      "longitude":16.4124657
   },
   {
      "buildingCode":"ZE",
      "city":"Wien",
      "houseNumber":"2",
      "id":754,
      "name":"Stadionallee 2 Neubau",
      "secondaryName":"Atominstitut ZE",
      "street":"Stadionallee",
      "zipCode":"1020",
      "latitude":48.196658,
      "longitude":16.4124657
   }
]
